name,latitude,longitude,show
Acalanes Ridge,37.9,-122.08,0
Acampo,38.17,-121.28,0
Acton,34.5,-118.19,0
Adelanto,34.59,-117.44,0
Adin,41.2,-120.95,0
Agoura Hills,34.15,-118.76,0
Agua Dulce,34.5,-118.32,0
Aguanga,33.45,-116.86,0
Ahwahnee,37.37,-119.72,0
Airport,37.63,-120.98,0
Alameda,37.76,-122.27,3
Alamo,37.85,-122.01,0
Albany,37.88,-122.33,0
Albion,39.23,-123.76,0
Alderpoint,40.16,-123.62,0
Alhambra,34.08,-118.14,0
Alhambra Valley,37.97,-122.14,0
Aliso Viejo,33.58,-117.73,0
Alleghany,39.47,-120.84,0
Allendale,38.44,-121.98,0
Allensworth,35.85,-119.39,0
Almanor,40.21,-121.18,0
Alondra Park,33.89,-118.33,0
Alpaugh,35.89,-119.49,0
Alpine,32.84,-116.76,0
Alpine Village,38.79,-119.8,0
Alta,39.21,-120.8,0
Alta Sierra,39.12,-121.05,0
Altadena,34.19,-118.14,0
Alto,37.91,-122.52,0
Alturas,41.49,-120.55,0
Alum Rock,37.37,-121.83,0
Amador City,38.42,-120.82,0
American Canyon,38.18,-122.26,0
Amesti,36.96,-121.78,0
Anaheim,33.84,-117.86,0
Anchor Bay,38.81,-123.57,0
Anderson,40.45,-122.3,0
Angels,38.07,-120.55,0
Angwin,38.58,-122.45,0
Antelope,38.72,-121.36,0
Antioch,37.98,-121.8,0
Anza,33.57,-116.7,0
Apple Valley town,34.53,-117.21,0
Aptos,36.99,-121.89,0
Aptos Hills-Larkin Valley,36.96,-121.83,0
Arbuckle,39.01,-122.06,0
Arcadia,34.13,-118.04,0
Arcata,40.86,-124.08,0
Arden-Arcade,38.6,-121.38,0
Armona,36.32,-119.71,0
Arnold,38.24,-120.35,0
Aromas,36.88,-121.64,0
Arroyo Grande,35.12,-120.58,0
Artesia,33.87,-118.08,0
Artois,39.63,-122.19,0
Arvin,35.19,-118.83,0
Ashland,37.69,-122.12,0
Aspen Springs,37.55,-118.71,0
Atascadero,35.48,-120.69,0
Atherton town,37.45,-122.2,0
Atwater,37.35,-120.6,0
Auberry,37.08,-119.49,0
Auburn,38.89,-121.08,0
Auburn Lake Trails,38.89,-120.98,0
August,37.98,-121.26,0
Avalon,33.33,-118.33,0
Avenal,36.03,-120.12,0
Avery,38.19,-120.38,0
Avilla Beach,35.2,-120.72,0
Avocado Heights,34.04,-118,0
Azusa,34.14,-117.91,0
Baker,35.28,-116.07,0
Bakersfield,35.35,-119.03,0
Baldwin Park,34.08,-117.97,0
Ballard,34.63,-120.12,0
Ballico,37.45,-120.7,0
Bangor,39.38,-121.41,0
Banning,33.95,-116.9,0
Barstow,34.87,-117.05,0
Bass Lake,37.33,-119.57,0
Bay Point,38.03,-121.96,0
Bayview,40.77,-124.18,0
Bayview,38.01,-122.32,0
Beale AFB,39.11,-121.35,0
Bear Creek,37.3,-120.42,0
Bear Valley,37.57,-120.12,0
Bear Valley,38.47,-120.05,0
Bear Valley Springs,35.18,-118.65,0
Beaumont,33.91,-116.98,0
Beckwourth,39.85,-120.41,0
Belden,40,-121.25,0
Bell Canyon,34.21,-118.69,0
Bell,33.98,-118.18,0
Bell Gardens,33.97,-118.16,0
Bella Vista,40.65,-122.24,0
Bellflower,33.89,-118.13,0
Belmont,37.52,-122.3,0
Belvedere,37.87,-122.47,0
Ben Lomond,37.08,-122.09,0
Benbow,40.06,-123.77,0
Bend,40.26,-122.21,0
Benicia,38.07,-122.15,0
Benton,37.82,-118.48,0
Berkeley,37.87,-122.3,2
Bermuda Dunes,33.74,-116.29,0
Berry Creek,39.63,-121.41,0
Bertsch-Oceanview,41.75,-124.16,0
Bethel Island,38.03,-121.64,0
Beverly Hills,34.08,-118.4,0
Bieber,41.13,-121.13,0
Big Bear City,34.25,-116.79,0
Big Bear Lake,34.24,-116.9,0
Big Bend,41.01,-121.92,0
Big Creek,37.2,-119.25,0
Big Lagoon,41.16,-124.13,0
Big Pine,37.17,-118.3,0
Big River,34.14,-114.36,0
Biggs,39.41,-121.71,0
Biola,36.8,-120.02,0
Bishop,37.37,-118.4,0
Black Point-Green Point,38.11,-122.52,0
Blackhawk,37.82,-121.91,0
Blacklake,35.05,-120.54,0
Blairsden,39.78,-120.61,0
Bloomfield,38.32,-122.85,0
Bloomington,34.06,-117.4,0
Blue Lake,40.88,-123.99,0
Blythe,33.62,-114.62,0
Bodega Bay,38.32,-123.03,0
Bodega,38.35,-122.97,0
Bodfish,35.58,-118.48,0
Bolinas,37.92,-122.71,0
Bombay Beach,33.35,-115.73,0
Bonadelle Ranchos-Madera Ranchos,36.96,-119.89,0
Bonita,32.67,-117.03,0
Bonny Doon,37.04,-122.14,0
Bonsall,33.28,-117.19,0
Boonville,39.01,-123.37,0
Bootjack,37.47,-119.89,0
Boron,35.02,-117.67,0
Boronda,36.69,-121.67,0
Borrego Springs,33.24,-116.36,0
Bostonia,32.82,-116.95,0
Boulder Creek,37.13,-122.13,3
Boulevard,32.66,-116.29,0
Bowles,36.61,-119.75,0
Boyes Hot Springs,38.31,-122.49,0
Bradbury,34.15,-117.97,0
Bradley,35.86,-120.8,0
Brawley,32.98,-115.53,0
Brea,33.93,-117.87,0
Brentwood,37.94,-121.72,0
Bret Harte,37.6,-121,0
Bridgeport,38.26,-119.21,0
Brisbane,37.69,-122.34,0
Broadmoor,37.69,-122.48,0
Brookdale,37.11,-122.11,3
Brooktrails,39.44,-123.4,0
Buck Meadows,37.81,-120.07,0
Buckhorn,38.45,-120.54,0
Bucks Lake,39.88,-121.19,0
Buellton,34.62,-120.19,0
Buena Park,33.86,-118,0
Buena Vista,38.3,-120.92,0
Burbank,37.32,-121.93,0
Burbank,34.19,-118.32,0
Burlingame,37.59,-122.36,0
Burney,40.88,-121.67,0
Burnt Ranch,40.81,-123.51,0
Butte Creek Canyon,39.75,-121.7,0
Butte Meadows,40.09,-121.54,0
Butte Valley,39.66,-121.64,0
Buttonwillow,35.41,-119.44,0
Byron,37.88,-121.64,0
Bystrom,37.62,-120.98,0
C-Road,39.76,-120.58,0
Cabazon,33.91,-116.78,0
Calabasas,34.14,-118.67,0
Calexico,32.68,-115.49,0
California City,35.16,-117.87,0
California Hot Springs,35.89,-118.66,0
California Pines,41.41,-120.66,0
Calimesa,33.99,-117.05,0
Calipatria,33.15,-115.51,0
Calistoga,38.58,-122.58,0
Callender,35.05,-120.58,0
Calpella,39.23,-123.2,0
Calpine,39.66,-120.44,0
Calwa,36.71,-119.76,0
Camanche North Shore,38.24,-120.95,0
Camanche Village,38.27,-120.99,0
Camarillo,34.22,-119.03,0
Cambria,35.55,-121.08,0
Cambrian Park,37.26,-121.93,0
Cameron Park,38.67,-120.99,0
Camino,38.74,-120.68,0
Camino Tassajara,37.79,-121.88,0
Camp Nelson,36.14,-118.61,0
Camp Pendleton North,33.31,-117.32,0
Camp Pendleton South,33.23,-117.38,0
Campbell,37.28,-121.95,3
Campo,32.64,-116.47,0
Camptonville,39.45,-121.05,0
Canby,41.45,-120.88,0
Cantua Creek,36.5,-120.32,0
Canyon Lake,33.69,-117.26,0
Canyondam,40.17,-121.08,0
Capitola,36.98,-121.95,0
Caribou,40.08,-121.16,0
Carlsbad,33.12,-117.28,0
Carmel Valley Village,36.48,-121.72,0
Carmel-by-the-Sea,36.55,-121.92,0
Carmet,38.37,-123.07,0
Carmichael,38.63,-121.32,0
Carnelian Bay,39.23,-120.08,0
Carpinteria,34.38,-119.51,0
Carrick,41.45,-122.36,0
Carson,33.84,-118.26,0
Cartago,36.31,-118.03,0
Caruthers,36.54,-119.85,0
Casa Conejo,34.18,-118.94,0
Casa de Oro-Mount Helix,32.76,-116.97,0
Casmalia,34.84,-120.53,0
Caspar,39.36,-123.8,0
Cassel,40.92,-121.55,0
Castaic,34.48,-118.63,0
Castle Hill,37.87,-122.06,0
Castro Valley,37.71,-122.06,0
Castroville,36.77,-121.75,0
Cathedral City,33.84,-116.47,0
Catheys Valley,37.44,-120.09,0
Cayucos,35.44,-120.89,0
Cazadero,38.53,-123.1,0
Cedar Ridge,38.07,-120.27,0
Cedar Slope,36.14,-118.58,0
Cedarville,41.53,-120.17,0
Centerville,36.74,-119.5,0
Ceres,37.6,-120.95,0
Cerritos,33.87,-118.07,0
Chalfant,37.51,-118.38,0
Challenge-Brownsville,39.46,-121.26,0
Channel Islands Beach,34.16,-119.22,0
Charter Oak,34.1,-117.86,0
Cherokee,39.65,-121.53,0
Cherokee Strip,35.47,-119.26,0
Cherry Valley,33.98,-116.97,0
Cherryland,37.68,-122.1,0
Chester,40.3,-121.23,0
Chico,39.76,-121.82,0
Chilcoot-Vinton,39.81,-120.14,0
China Lake Acres,35.64,-117.77,0
Chinese Camp,37.87,-120.44,0
Chino,33.98,-117.67,0
Chino Hills,33.95,-117.73,0
Chowchilla,37.11,-120.23,0
Chualar,36.57,-121.51,0
Chula Vista,32.63,-117.01,0
Citrus,34.12,-117.89,0
Citrus Heights,38.69,-121.29,0
Claremont,34.13,-117.72,0
Clarksburg,38.42,-121.54,0
Clay,38.31,-121.16,0
Clayton,37.94,-121.93,0
Clear Creek,40.3,-121.05,0
Clearlake,38.96,-122.63,0
Clearlake Oaks,39.02,-122.66,0
Clearlake Riviera,38.95,-122.72,0
Cleone,39.49,-123.78,0
Clio,39.75,-120.57,0
Clipper Mills,39.53,-121.17,0
Cloverdale,38.8,-123.02,0
Clovis,36.83,-119.69,0
Clyde,38.03,-122.03,0
Coachella,33.69,-116.15,0
Coalinga,36.14,-120.33,0
Coarsegold,37.25,-119.7,0
Cobb,38.84,-122.72,0
Coffee Creek,41.08,-122.71,0
Cohasset,39.9,-121.74,0
Cold Springs,38.75,-120.88,0
Cold Springs,38.16,-120.05,0
Coleville,38.58,-119.52,0
Colfax,39.09,-120.95,0
College City,39.01,-122.01,0
Collierville,38.21,-121.27,0
Colma town,37.68,-122.45,0
Coloma,38.8,-120.89,0
Colton,34.05,-117.33,0
Columbia,38.03,-120.41,0
Colusa,39.2,-122.01,0
Commerce,34,-118.15,0
Comptche,39.27,-123.59,0
Compton,33.89,-118.23,0
Concord,37.97,-122,0
Concow,39.77,-121.52,0
Contra Costa Centre,37.93,-122.05,0
Copperopolis,37.94,-120.63,0
Corcoran,36.08,-119.56,0
Corning,39.93,-122.18,0
Corona,33.86,-117.56,0
Coronado,32.64,-117.17,0
Coronita,33.88,-117.61,0
Corralitos,36.99,-121.79,0
Corte Madera town,37.93,-122.51,0
Costa Mesa,33.67,-117.91,0
Cotati,38.33,-122.71,0
Coto de Caza,33.6,-117.59,0
Cottonwood,40.39,-122.29,0
Coultervillle,37.71,-120.2,0
Country Club,37.97,-121.34,0
Courtland,38.33,-121.56,0
Covelo,39.8,-123.25,0
Covina,34.09,-117.88,0
Cowan,37.56,-120.99,0
Crescent City,41.77,-124.19,0
Crescent Mills,40.1,-120.92,0
Cressey,37.42,-120.66,0
Crest,32.8,-116.87,0
Crestline,34.25,-117.29,0
Crestmore Heights,34.03,-117.4,0
Creston,35.52,-120.52,0
Crockett,38.05,-122.22,0
Cromberg,39.87,-120.69,0
Crowley Lake,37.57,-118.75,0
Crows Landing,37.39,-121.08,0
Cudahy,33.96,-118.18,0
Culver City,34.01,-118.4,0
Cupertino,37.32,-122.05,3
Cutler,36.53,-119.29,0
Cutten,40.77,-124.14,0
Cuyama,34.93,-119.61,0
Cypress,33.82,-118.04,0
Daly City,37.69,-122.47,2
Dana Point,33.44,-117.71,0
Danville town,37.81,-121.97,0
Daphnedale Park,41.51,-120.55,0
Darwin,36.27,-117.59,0
Davenport,37.02,-122.19,0
Davis,38.56,-121.74,0
Day Valley,37.03,-121.86,0
Deer Park,38.54,-122.47,0
Del Aire,33.92,-118.37,0
Del Mar,32.96,-117.26,0
Del Monte Forest,36.58,-121.95,0
Del Rey,36.66,-119.6,0
Del Rey Oaks,36.59,-121.84,0
Del Rio,37.74,-121.01,0
Delano,35.77,-119.26,0
Delft Colony,36.51,-119.45,0
Delhi,37.43,-120.78,0
Delleker,39.81,-120.5,0
Denair,37.53,-120.8,0
Derby Acres,35.24,-119.6,0
Descanso,32.87,-116.63,0
Desert Center,33.74,-115.37,0
Desert Edge,33.92,-116.44,0
Desert Hot Springs,33.97,-116.55,0
Desert Palms,33.78,-116.29,0
Desert Shores,33.4,-116.04,0
Desert View Highlands,34.59,-118.15,0
Diablo,37.84,-121.96,0
Diablo Grande,37.4,-121.27,0
Diamond Bar,34,-117.82,0
Diamond Springs,38.69,-120.84,0
Dillon Beach,38.24,-122.96,0
Dinuba,36.55,-119.4,0
Discovery Bay,37.91,-121.6,0
Dixon,38.45,-121.82,0
Dixon Lane-Meadow Creek,37.39,-118.42,0
Dobbins,39.37,-121.21,0
Dogtown,38.21,-121.16,0
Dollar Point,39.19,-120.11,0
Dorrington,38.29,-120.27,0
Dorris,41.96,-121.92,0
Dos Palos,36.99,-120.63,0
Dos Palos Y,37.05,-120.64,0
Douglas City,40.66,-122.93,0
Downey,33.94,-118.13,0
Downieville,39.57,-120.82,0
Doyle,40.03,-120.12,0
Drytown,38.44,-120.86,0
Duarte,34.16,-117.95,0
Dublin,37.72,-121.9,0
Ducor,35.89,-119.05,0
Dunnigan,38.89,-121.97,0
Dunsmuir,41.23,-122.27,0
Durham,39.62,-121.79,0
Dustin Acres,35.22,-119.37,0
Dutch Flat,39.21,-120.83,0
Eagleville,41.32,-120.11,0
Earlimart,35.88,-119.27,0
East Foothills,37.38,-121.82,0
East Hemet,33.73,-116.94,0
East La Mirada,33.92,-117.99,0
East Los Angeles,34.03,-118.17,0
East Nicolaus,38.91,-121.54,0
East Oakdale,37.78,-120.8,0
East Orosi,36.55,-119.26,0
East Palo Alto,37.47,-122.13,0
East Pasadena,34.14,-118.08,0
East Porterville,36.06,-118.97,0
East Quincy,39.92,-120.92,0
East Rancho Dominguez,33.89,-118.2,0
East Richmond Heights,37.95,-122.31,0
East San Gabriel,34.12,-118.08,0
East Shore,40.25,-121.08,0
East Sonora,37.98,-120.34,0
East Tulare Villa,36.2,-119.28,0
Easton,36.65,-119.79,0
Eastvale,33.96,-117.58,0
Edgewood,41.46,-122.43,0
Edmundson Acres,35.23,-118.82,0
Edna,35.21,-120.61,0
Edwards AFB,34.9,-117.93,0
El Cajon,32.8,-116.96,0
El Centro,32.79,-115.56,0
# El Cerrito,33.84,-117.52,0
El Cerrito,37.92,-122.3,3
El Dorado Hills,38.67,-121.05,0
El Granada,37.51,-122.47,3
El Monte,34.07,-118.03,0
El Nido,37.13,-120.5,0
El Paso de Robles (Paso Robles),35.64,-120.66,0
El Portal,37.67,-119.79,0
El Rancho,36.22,-119.07,0
El Rio,34.25,-119.16,0
El Segundo,33.92,-118.4,0
El Sobrante,33.87,-117.46,0
El Sobrante,37.97,-122.3,0
El Verano,38.3,-122.49,0
Eldridge,38.33,-122.51,0
Elizabeth Lake,34.66,-118.38,0
Elk Creek,39.6,-122.54,0
Elk Grove,38.42,-121.38,0
Elkhorn,36.81,-121.72,0
Elmira,38.35,-121.91,0
Elverta,38.72,-121.45,0
Emerald Lake Hills,37.47,-122.27,0
Emeryville,37.84,-122.3,0
Empire,37.64,-120.9,0
Encinitas,33.05,-117.26,0
Escalon,37.79,-121,0
Escondido,33.13,-117.07,0
Esparto,38.69,-122.02,0
Etna,41.46,-122.89,0
Eucalyptus Hills,32.89,-116.95,0
Eureka,40.79,-124.16,0
Exeter,36.29,-119.15,0
Fair Oaks,38.65,-121.25,0
Fairbanks Ranch,32.99,-117.19,0
Fairfax town,37.99,-122.6,0
Fairfield,38.26,-122.04,0
Fairmead,37.08,-120.2,0
Fairview,37.68,-122.05,0
Fall River Mills,41.01,-121.44,0
Fallbrook,33.37,-117.23,0
Farmersville,36.31,-119.21,0
Farmington,37.93,-121,0
Fellows,35.18,-119.55,0
Felton,37.04,-122.08,0
Ferndale,40.58,-124.26,0
Fetters Hot Springs-Agua Caliente,38.33,-122.49,0
Fiddletown,38.51,-120.76,0
Fieldbrook,40.97,-124.03,0
Fields Landing,40.72,-124.22,0
Fillmore,34.4,-118.92,0
Firebaugh,36.85,-120.45,0
Fish Camp,37.48,-119.64,0
Florence-Graham,33.97,-118.24,0
Florin,38.48,-121.4,0
Floriston,39.39,-120.02,0
Flournoy,39.93,-122.45,0
Folsom,38.68,-121.15,0
Fontana,34.1,-117.46,0
Foothill Farms,38.69,-121.35,0
Forbestown,39.53,-121.27,0
Ford City,35.16,-119.46,0
Forest Meadows,38.17,-120.41,0
Forest Ranch,39.9,-121.67,0
Foresthill,39.01,-120.83,0
Forestville,38.48,-122.89,0
Fort Bidwell,41.86,-120.16,0
Fort Bragg,39.44,-123.8,0
Fort Irwin,35.25,-116.68,0
Fort Jones,41.61,-122.84,0
Fort Washington,36.88,-119.76,0
Fortuna,40.59,-124.14,0
Foster City,37.58,-122.24,0
Fountain Valley,33.71,-117.95,0
Fowler,36.62,-119.67,0
Franklin,37.33,-120.53,0
Franklin,38.37,-121.46,0
Frazier Park,34.81,-118.95,0
Freedom,36.94,-121.8,0
Freeport,38.46,-121.5,0
Fremont,37.52,-122,3
French Camp,37.88,-121.28,0
French Gulch,40.72,-122.63,0
French Valley,33.6,-117.11,0
Fresno,36.78,-119.79,0
Friant,36.98,-119.71,0
Fruitdale,37.31,-121.94,0
Fruitridge Pocket,38.53,-121.46,0
Fuller Acres,35.3,-118.91,0
Fullerton,33.88,-117.93,0
Fulton,38.49,-122.77,0
Furnace Creek,36.43,-116.87,0
Galt,38.27,-121.3,0
Garberville,40.1,-123.79,0
Garden Acres,37.96,-121.23,0
Garden Farms,35.42,-120.61,0
Garden Grove,33.78,-117.96,0
Gardena,33.89,-118.31,0
Garey,34.89,-120.31,0
Garnet,33.92,-116.49,0
Gasquet,41.84,-123.97,0
Gazelle,41.51,-122.52,0
Georgetown,38.91,-120.84,0
Gerber,40.06,-122.15,0
Geyserville,38.72,-122.9,0
Gilroy,37,-121.58,0
Glen Avon,34.02,-117.49,0
Glen Ellen,38.36,-122.54,0
Glendale,34.18,-118.25,0
Glendora,34.14,-117.85,0
Gold Mountain,39.76,-120.52,0
Gold River,38.63,-121.25,0
Golden Hills,35.15,-118.5,0
Goleta,34.44,-119.86,0
Gonzales,36.51,-121.44,0
Good Hope,33.77,-117.28,0
Goodyears Bar,39.55,-120.89,0
Goshen,36.35,-119.42,0
Graeagle,39.76,-120.65,0
Grand Terrace,34.03,-117.31,0
Grangeville,36.34,-119.71,0
Granite Bay,38.76,-121.17,0
Granite Hills,32.8,-116.91,0
Graniteville,39.44,-120.74,0
Grass Valley,39.22,-121.06,0
Graton,38.44,-122.87,0
Grayson,37.58,-121.18,0
Greeley Hill,37.76,-120.13,0
Green Acres,33.73,-117.08,0
Green Valley,38.26,-122.16,0
Green Valley,34.62,-118.41,0
Greenacres,35.38,-119.12,0
Greenfield,35.27,-119.01,0
Greenfield,36.32,-121.25,0
Greenhorn,39.9,-120.76,0
Greenview,41.55,-122.92,0
Greenville,40.13,-120.95,0
Grenada,41.64,-122.53,0
Gridley,39.36,-121.7,0
Grimes,39.07,-121.9,0
Grizzly Flats,38.64,-120.54,0
Groveland,37.83,-120.24,0
Grover Beach,35.12,-120.62,0
Guadalupe,34.96,-120.57,0
Guerneville,38.51,-122.99,0
Guinda,38.83,-122.2,0
Gustine,37.25,-120.99,0
Hacienda Heights,34,-117.97,0
Half Moon Bay,37.47,-122.44,3
Hamilton Branch,40.28,-121.1,0
Hamilton City,39.74,-122.01,0
Hanford,36.33,-119.65,0
Happy Camp,41.81,-123.39,0
Harbison Canyon,32.83,-116.84,0
Hardwick,36.4,-119.72,0
Hartland,36.65,-118.96,0
Hartley,38.42,-121.95,0
Hasley Canyon,34.48,-118.67,0
Hat Creek,40.81,-121.48,0
Hawaiian Gardens,33.83,-118.07,0
Hawthorne,33.91,-118.35,0
Hayfork,40.56,-123.13,0
Hayward,37.63,-122.11,3
Healdsburg,38.62,-122.87,0
Heber,32.73,-115.52,0
Hemet,33.74,-116.99,0
Herald,38.29,-121.23,0
Hercules,38.03,-122.29,0
Herlong,40.14,-120.14,0
Hermosa Beach,33.87,-118.4,0
Hesperia,34.4,-117.31,0
Hickman,37.63,-120.75,0
Hidden Hills,34.16,-118.66,0
Hidden Meadows,33.22,-117.12,0
Hidden Valley Lake,38.8,-122.55,0
Highgrove,34.01,-117.31,0
Highland,34.11,-117.17,0
Highlands-Baywood Park,37.52,-122.34,0
Hillsborough town,37.56,-122.36,0
Hilmar-Irwin,37.4,-120.85,0
Hiouchi,41.79,-124.07,0
Hollister,36.86,-121.4,0
Holtville,32.81,-115.38,0
Home Garden,36.3,-119.64,0
Home Gardens,33.88,-117.51,0
Homeland,33.75,-117.11,0
Homestead Valley,34.27,-116.41,0
Homewood Canyon,35.89,-117.39,0
Honcut,39.33,-121.54,0
Hood,38.37,-121.52,0
Hopland,38.97,-123.12,0
Hornbrook,41.91,-122.56,0
Hornitos,37.5,-120.24,0
Hughson,37.6,-120.87,0
Humboldt Hill,40.72,-124.2,0
Huntington Beach,33.69,-118.01,0
Huntington Park,33.98,-118.22,0
Huron,36.2,-120.1,0
Hyampom,40.63,-123.47,0
Hydesville,40.56,-124.08,0
Idlewild,35.81,-118.67,0
Idyllwild-Pine Cove,33.74,-116.73,0
Imperial Beach,32.57,-117.12,0
Imperial,32.84,-115.57,0
Independence,36.83,-118.21,0
Indian Falls,40.06,-120.98,0
Indian Wells,33.7,-116.34,0
Indianola,40.81,-124.08,0
Indio,33.73,-116.24,0
Indio Hills,33.84,-116.25,0
Industry,34.02,-117.93,0
Inglewood,33.96,-118.34,0
Interlaken,36.95,-121.74,0
Inverness,38.08,-122.85,0
Inyokern,35.65,-117.82,0
Ione,38.36,-120.94,0
Iron Horse,39.78,-120.48,0
Irvine,33.68,-117.77,0
Irwindale,34.11,-117.96,0
Isla Vista,34.41,-119.86,0
Isleton,38.16,-121.61,0
Ivanhoe,36.39,-119.22,0
Jackson,38.35,-120.77,0
Jacumba,32.63,-116.18,0
Jamestown,37.96,-120.41,0
Jamul,32.72,-116.87,0
Janesville,40.28,-120.53,0
Jenner,38.45,-123.12,0
Johannesburg,35.37,-117.64,0
Johnstonville,40.38,-120.58,0
Johnsville,39.77,-120.71,0
Joshua Tree,34.12,-116.31,0
Julian,33.07,-116.59,0
Junction City,40.73,-123.06,0
June Lake,37.77,-119.1,0
Keddie,40.01,-120.95,0
Keeler,36.48,-117.87,0
Keene,35.23,-118.61,0
Kelly Ridge,39.53,-121.47,0
Kelseyville,38.97,-122.83,0
Kennedy,37.93,-121.25,0
Kennedy Meadows,36.01,-118.11,0
Kensington,37.91,-122.28,0
Kentfield,37.95,-122.55,0
Kenwood,38.42,-122.54,0
Kerman,36.73,-120.06,0
Kernville,35.75,-118.43,0
Keswick,40.61,-122.46,0
Kettleman City,36.01,-119.96,0
Keyes,37.56,-120.91,0
King City,36.22,-121.13,0
Kings Beach,39.25,-120.02,0
Kingsburg,36.52,-119.56,0
Kingvale,39.32,-120.44,0
Kirkwood,38.69,-120.06,0
Klamath,41.53,-124.01,0
Knights Landing,38.8,-121.72,0
Knightsen,37.96,-121.65,0
La Ca▒ada Flintridge,34.21,-118.2,0
La Crescenta-Montrose,34.23,-118.24,0
La Habra,33.93,-117.95,0
La Habra Heights,33.96,-117.95,0
La Honda,37.32,-122.27,3
La Mesa,32.77,-117.02,0
La Mirada,33.9,-118.01,0
La Palma,33.85,-118.04,0
La Porte,39.67,-120.99,0
La Presa,32.71,-117,0
La Puente,34.03,-117.95,0
La Quinta,33.65,-116.28,0
La Riviera,38.57,-121.35,0
La Selva Beach,36.93,-121.84,0
La Verne,34.12,-117.77,0
La Vina,36.88,-120.11,0
Ladera,37.4,-122.2,0
Ladera Heights,34,-118.37,0
Ladera Ranch,33.55,-117.64,0
Lafayette,37.89,-122.12,0
Laguna Beach,33.54,-117.76,0
Laguna Hills,33.59,-117.7,0
Laguna Niguel,33.53,-117.7,0
Laguna Woods,33.61,-117.73,0
Lagunitas-Forest Knolls,38.02,-122.69,0
Lake Almanor Country Club,40.26,-121.15,0
Lake Almanor Peninsula,40.28,-121.13,0
Lake Almanor West,40.23,-121.2,0
Lake Arrowhead,34.25,-117.19,0
Lake California,40.36,-122.21,0
Lake City,41.65,-120.23,0
Lake Davis,39.86,-120.46,0
Lake Don Pedro,37.65,-120.34,0
Lake Elsinore,33.68,-117.33,0
Lake Forest,33.66,-117.67,0
Lake Hughes,34.68,-118.46,0
Lake Isabella,35.64,-118.48,0
Lake Los Angeles,34.61,-117.83,0
Lake Mathews,33.82,-117.37,0
Lake Nacimiento,35.73,-120.87,0
Lake of the Pines,39.04,-121.06,0
Lake of the Woods,34.82,-119,0
Lake Riverside,33.52,-116.81,0
Lake San Marcos,33.12,-117.21,0
Lake Sherwood,34.13,-118.88,0
Lake Wildwood,39.24,-121.2,0
Lakehead,40.9,-122.39,0
Lakeland Village,33.65,-117.37,0
Lakeport,39.04,-122.92,0
Lakeside,32.86,-116.9,0
Lakeview,33.83,-117.12,0
Lakewood,33.85,-118.12,0
Lamont,35.27,-118.92,0
Lanare,36.44,-119.93,0
Lancaster,34.69,-118.18,0
Larkfield-Wikiup,38.51,-122.75,0
Larkspur,37.94,-122.53,3
Las Flores,33.58,-117.62,0
Las Flores,40.07,-122.16,0
Las Lomas,36.87,-121.73,0
Lathrop,37.82,-121.31,0
Laton,36.43,-119.69,0
Lawndale,33.89,-118.35,0
Laytonville,39.67,-123.49,0
Le Grand,37.23,-120.25,0
Lebec,34.84,-118.9,0
Lee Vining,37.95,-119.12,0
Leggett,39.86,-123.73,0
Lemon Cove,36.38,-119.03,0
Lemon Grove,32.73,-117.03,0
Lemon Hill,38.52,-121.46,0
Lemoore,36.3,-119.8,0
Lemoore Station,36.26,-119.9,0
Lennox,33.94,-118.36,0
Lenwood,34.89,-117.11,0
Leona Valley,34.61,-118.3,0
Lewiston,40.7,-122.82,0
Lexington Hills,37.16,-121.99,0
Likely,41.23,-120.5,0
Lincoln,38.87,-121.29,0
Lincoln Village,38.01,-121.33,0
Linda,39.12,-121.54,0
Lindcove,36.36,-119.07,0
Linden,38.02,-121.1,0
Lindsay,36.21,-119.09,0
Linnell Camp,36.31,-119.22,0
Litchfield,40.39,-120.38,0
Little Grass Valley,39.73,-120.96,0
Little River,39.27,-123.78,0
Littlerock,34.52,-117.98,0
Live Oak,36.99,-121.98,0
Live Oak,39.27,-121.67,0
Livermore,37.69,-121.76,0
Livingston,37.39,-120.73,0
Lockeford,38.15,-121.16,0
Lockwood,35.94,-121.08,0
Lodi,38.12,-121.29,0
Lodoga,39.3,-122.51,0
Loleta,40.64,-124.22,0
Loma Linda,34.04,-117.25,0
Loma Mar,37.27,-122.3,0
Loma Rica,39.32,-121.4,0
Lomita,33.79,-118.32,0
Lompico,37.11,-122.05,0
Lompoc,34.66,-120.47,0
London,36.48,-119.44,0
Lone Pine,36.58,-118.08,0
Long Barn,38.1,-120.13,0
Long Beach,33.81,-118.16,0
Lookout,41.21,-121.15,0
Loomis town,38.81,-121.2,0
Los Alamitos,33.8,-118.06,0
Los Alamos,34.74,-120.28,0
Los Altos,37.37,-122.1,3
Los Altos Hills town,37.37,-122.14,0
Los Angeles,34.11,-118.41,0
Los Banos,37.06,-120.84,0
Los Berros,35.08,-120.55,0
Los Gatos town,37.23,-121.96,3
Los Molinos,40.03,-122.1,0
Los Olivos,34.66,-120.12,0
Los Osos,35.31,-120.82,0
Los Ranchos,35.21,-120.63,0
Lost Hills,35.63,-119.68,0
Lower Lake,38.91,-122.61,0
Loyalton,39.68,-120.24,0
Loyola,37.35,-122.1,0
Lucas Valley-Marinwood,38.04,-122.58,0
Lucerne,39.07,-122.78,0
Lucerne Valley,34.44,-116.9,0
Lynwood,33.92,-118.2,0
Lytle Creek,34.25,-117.5,0
Mabie,39.78,-120.54,0
Macdoel,41.83,-122.01,0
Mad River,40.43,-123.49,0
Madera Acres,37.01,-120.08,0
Madera,36.96,-120.08,0
Magalia,39.82,-121.61,0
Malaga,36.68,-119.73,0
Malibu,34.04,-118.78,0
Mammoth Lakes town,37.63,-118.99,0
Manchester,38.97,-123.69,0
Manhattan Beach,33.89,-118.4,0
Manila,40.85,-124.16,0
Manteca,37.8,-121.23,0
Manton,40.42,-121.85,0
March ARB,33.89,-117.28,0
Maricopa,35.05,-119.41,0
Marin City,37.87,-122.51,0
Marina,36.68,-121.79,0
Marina del Rey,33.98,-118.45,0
Mariposa,37.49,-119.98,0
Markleeville,38.68,-119.82,0
Martell,38.36,-120.8,0
Martinez,38,-122.12,0
Marysville,39.15,-121.58,0
Matheny,36.17,-119.35,0
Mather,38.55,-121.28,0
Maxwell,39.28,-122.19,0
Mayfair,36.77,-119.76,0
Mayflower Village,34.12,-118.01,0
Maywood,33.99,-118.19,0
McArthur,41.04,-121.41,0
McClellan Park,38.66,-121.4,0
McClenney Tract,35.82,-118.65,0
McCloud,41.25,-122.14,0
McFarland,35.68,-119.24,0
McGee Creek,37.57,-118.79,0
McKinleyville,40.95,-124.09,0
McKittrick,35.3,-119.62,0
McSwain,37.31,-120.59,0
Mead Valley,33.83,-117.29,0
Meadow Valley,39.93,-121.08,0
Meadow Vista,39,-121.03,0
Meadowbrook,33.72,-117.28,0
Mecca,33.58,-116.06,0
Meiners Oaks,34.45,-119.27,0
Mendocino,39.31,-123.83,0
Mendota,36.76,-120.38,0
Menifee,33.69,-117.18,0
Menlo Park,37.48,-122.15,0
Mentone,34.06,-117.11,0
Merced,37.31,-120.48,0
Meridian,39.14,-121.91,0
Mesa,37.42,-118.54,0
Mesa Verde,33.6,-114.73,0
Mesa Vista,38.81,-119.8,0
Mettler,35.06,-118.97,0
Mexican Colony,35.47,-119.27,0
Mi-Wuk Village,38.06,-120.18,0
Middletown,38.75,-122.62,0
Midpines,37.55,-119.95,0
Midway City,33.74,-117.99,0
Milford,40.16,-120.37,0
Mill Valley,37.91,-122.54,3
Millbrae,37.6,-122.4,0
Millville,40.56,-122.17,0
Milpitas,37.43,-121.89,3
Mineral,40.38,-121.57,0
Minkler,36.73,-119.46,0
Mira Loma,33.98,-117.52,0
Mira Monte,34.43,-119.29,0
Miranda,40.23,-123.82,0
Mission Canyon,34.45,-119.71,0
Mission Hills,34.69,-120.44,0
Mission Viejo,33.61,-117.66,0
Modesto,37.66,-120.99,0
Mohawk Vista,39.8,-120.59,0
Mojave,35.01,-118.19,0
Mokelumne Hill,38.31,-120.71,0
Monmouth,36.57,-119.74,0
Mono City,38.04,-119.15,0
Mono Vista,38.01,-120.27,0
Monrovia,34.17,-117.99,0
Monson,36.49,-119.34,0
Montague,41.73,-122.53,0
Montalvin Manor,38,-122.33,0
Montara,37.55,-122.49,0
Montclair,34.07,-117.7,0
Monte Rio,38.47,-123.01,0
Monte Sereno,37.24,-121.99,0
Montebello,34.02,-118.11,0
Montecito,34.44,-119.63,0
Monterey,36.6,-121.88,0
Monterey Park,34.05,-118.13,0
Monterey Park Tract,37.53,-121.01,0
Montgomery Creek,40.84,-121.92,0
Monument Hills,38.66,-121.88,0
Moorpark,34.29,-118.88,0
Morada,38.04,-121.25,0
Moraga town,37.84,-122.12,0
Moreno Valley,33.92,-117.2,0
Morgan Hill,37.13,-121.64,0
Morongo Valley,34.07,-116.56,0
Morro Bay,35.37,-120.87,0
Moskowite Corner,38.45,-122.19,0
Moss Beach,37.52,-122.5,0
Moss Landing,36.8,-121.79,0
Mount Hebron,41.79,-122.01,0
Mount Hermon,37.05,-122.05,0
Mount Laguna,32.87,-116.42,0
Mount Shasta,41.32,-122.32,0
Mountain Center,33.71,-116.72,0
Mountain Gate,40.72,-122.33,0
Mountain House,37.77,-121.55,0
Mountain Mesa,35.64,-118.4,0
Mountain Ranch,38.25,-120.51,0
Mountain View Acres,34.5,-117.35,0
# Mountain View,38.01,-122.12,0
Mountain View,37.4,-122.08,2
Muir Beach,37.87,-122.59,0
Murphys,38.14,-120.43,0
Murrieta,33.57,-117.19,0
Muscoy,34.15,-117.35,0
Myers Flat,40.27,-123.87,0
Myrtletown,40.79,-124.13,0
Napa,38.3,-122.3,0
National City,32.67,-117.1,0
Needles,34.82,-114.62,0
Nevada City,39.26,-121.02,0
New Cuyama,34.94,-119.68,0
New Pine Creek,41.99,-120.3,0
Newark,37.52,-122.03,4
Newcastle,38.87,-121.13,0
Newell,41.89,-121.37,0
Newman,37.32,-121.02,0
Newport Beach,33.6,-117.89,0
Nicasio,38.06,-122.7,0
Nice,39.13,-122.85,0
Nicolaus,38.9,-121.57,0
Niland,33.24,-115.51,0
Nipinnawasee,37.4,-119.73,0
Nipomo,35.03,-120.5,0
Norco,33.93,-117.55,0
Nord,39.77,-121.95,0
Norris Canyon,37.75,-121.99,0
North Auburn,38.93,-121.08,0
North Edwards,35.05,-117.81,0
North El Monte,34.1,-118.02,0
North Fair Oaks,37.48,-122.2,0
North Gate,37.91,-122,0
North Highlands,38.67,-121.37,0
North Lakeport,39.09,-122.91,0
North Richmond,37.96,-122.37,0
North San Juan,39.37,-121.11,0
North Shore,33.52,-115.91,0
North Tustin,33.76,-117.79,0
Norwalk,33.91,-118.08,0
Novato,38.09,-122.56,0
Nubieber,41.1,-121.18,0
Nuevo,33.8,-117.14,0
Oak Glen,34.05,-116.95,0
Oak Hills,34.39,-117.41,0
Oak Park,34.18,-118.77,0
Oak Shores,35.76,-120.98,0
Oak View,34.4,-119.3,0
Oakdale,37.76,-120.85,0
Oakhurst,37.33,-119.65,0
Oakland,37.804,-122.27,2
Oakley,37.99,-121.7,0
Oakville,38.44,-122.41,0
Oasis,33.53,-116.13,0
Occidental,38.4,-122.93,0
Oceano,35.1,-120.61,0
Oceanside,33.22,-117.31,0
Ocotillo,32.74,-116,0
Oildale,35.42,-119.03,0
Ojai,34.45,-119.25,0
Olancha,36.27,-118,0
Old Fig Garden,36.8,-119.81,0
Old Station,40.67,-121.42,0
Olivehurst,39.08,-121.55,0
Ontario,34.04,-117.61,0
Onyx,35.68,-118.21,0
Orange,33.8,-117.82,0
Orange Cove,36.62,-119.32,0
Orangevale,38.69,-121.22,0
Orcutt,34.87,-120.43,0
Orick,41.29,-124.07,0
Orinda,37.88,-122.18,0
Orland,39.75,-122.19,0
Orosi,36.54,-119.29,0
Oroville,39.5,-121.57,0
Oroville East,39.49,-121.49,0
Oxnard,34.2,-119.21,0
Pacheco,37.99,-122.07,0
Pacific Grove,36.62,-121.93,0
Pacifica,37.61,-122.48,3
Pajaro,36.9,-121.74,0
Pajaro Dunes,36.87,-121.81,0
Palermo,39.43,-121.52,0
Palm Desert,33.74,-116.37,0
Palm Springs,33.8,-116.54,0
Palmdale,34.59,-118.11,0
Palo Alto,37.4,-122.14,2
Palo Cedro,40.55,-122.24,0
Palo Verde,33.43,-114.73,0
Palos Verdes Estates,33.79,-118.4,0
Panorama Heights,35.81,-118.63,0
Paradise,37.48,-118.6,0
Paradise Park,37.01,-122.04,0
Paradise town,39.76,-121.61,0
Paramount,33.9,-118.17,0
Parklawn,37.61,-120.98,0
Parksdale,36.95,-120.02,0
Parkway,38.5,-121.45,0
Parkwood,36.93,-120.05,0
Parlier,36.61,-119.54,0
Pasadena,34.16,-118.14,0
Pasatiempo,37,-122.03,0
Paskenta,39.88,-122.55,0
Patterson,37.47,-121.14,0
Patterson Tract,36.38,-119.3,0
Patton Village,40.14,-120.18,0
Paxton,40.03,-121,0
Paynes Creek,40.34,-121.92,0
Pearsonville,35.82,-117.88,0
Pedley,33.98,-117.47,0
Penn Valley,39.2,-121.19,0
Penngrove,38.3,-122.67,0
Penryn,38.85,-121.17,0
Perris,33.79,-117.22,0
Pescadero,37.25,-122.37,3
Petaluma,38.24,-122.63,0
Peters,37.98,-121.04,0
Phelan,34.44,-117.52,0
Phillipsville,40.21,-123.78,0
Philo,39.07,-123.45,0
Phoenix Lake,38.01,-120.31,0
Pi▒on Hills,34.44,-117.62,0
Pico Rivera,33.99,-118.09,0
Piedmont,37.82,-122.23,0
Pierpoint,36.14,-118.63,0
Pike,39.43,-121,0
Pine Canyon,36.18,-121.15,0
Pine Flat,35.87,-118.64,0
Pine Grove,38.41,-120.66,0
Pine Hills,40.73,-124.16,0
Pine Mountain Club,34.84,-119.17,0
Pine Mountain Lake,37.86,-120.18,0
Pine Valley,32.84,-116.51,0
Pinole,38.01,-122.32,0
Pioneer,38.44,-120.58,0
Piru,34.41,-118.8,0
Pismo Beach,35.14,-120.67,0
Pittsburg,38.02,-121.9,0
Pixley,35.98,-119.29,0
Placentia,33.88,-117.86,0
Placerville,38.73,-120.8,0
Plainview,36.14,-119.14,0
Planada,37.29,-120.32,0
Pleasant Hill,37.95,-122.08,0
Pleasanton,37.67,-121.88,0
Pleasure Point,36.96,-121.97,0
Plumas Eureka,39.8,-120.66,0
Plumas Lake,38.99,-121.56,0
Plymouth,38.48,-120.84,0
Point Arena,38.91,-123.7,0
Point Reyes Station,38.08,-122.81,0
Pollock Pines,38.76,-120.59,0
Pomona,34.06,-117.76,0
Ponderosa,36.11,-118.53,0
Poplar-Cotton Center,36.06,-119.15,0
Port Costa,38.04,-122.18,0
Port Hueneme,34.16,-119.2,0
Porterville,36.06,-119.03,0
Portola,39.82,-120.47,0
Portola Valley town,37.37,-122.22,0
Posey,35.8,-118.68,0
Poso Park,35.81,-118.64,0
Potrero,32.61,-116.61,0
Potter Valley,39.32,-123.11,0
Poway,32.99,-117.02,0
Prattville,40.21,-121.16,0
Princeton,39.4,-122.02,0
Proberta,40.08,-122.18,0
Prunedale,36.81,-121.66,0
Quartz Hill,34.65,-118.22,0
Quincy,39.93,-120.95,0
Rackerby,39.43,-121.35,0
Rail Road Flat,38.32,-120.49,0
Rainbow,33.41,-117.14,0
Raisin City,36.6,-119.91,0
Ramona,33.05,-116.88,0
Rancho Calaveras,38.12,-120.86,0
Rancho Cordova,38.57,-121.25,0
Rancho Cucamonga,34.12,-117.57,0
Rancho Mirage,33.76,-116.43,0
Rancho Murieta,38.51,-121.07,0
Rancho Palos Verdes,33.76,-118.36,0
Rancho San Diego,32.76,-116.92,0
Rancho Santa Fe,33.02,-117.2,0
Rancho Santa Margarita,33.63,-117.6,0
Rancho Tehama Reserve,40,-122.44,0
Randsburg,35.37,-117.66,0
Red Bluff,40.17,-122.24,0
Red Corral,38.41,-120.61,0
Redcrest,40.4,-123.95,0
Redding,40.57,-122.37,0
Redlands,34.05,-117.17,0
Redondo Beach,33.86,-118.38,0
Redway,40.12,-123.82,0
Redwood City,37.52,-122.21,2
Redwood Valley,39.27,-123.2,0
Reedley,36.6,-119.45,0
Reliez Valley,37.94,-122.1,0
Rialto,34.11,-117.39,0
Richfield,39.97,-122.17,0
Richgrove,35.8,-119.11,0
Richmond,37.95,-122.36,2
Richvale,39.49,-121.75,0
Ridgecrest,35.63,-117.66,0
Ridgemark,36.81,-121.36,0
Rio del Mar,36.96,-121.88,0
Rio Dell,40.5,-124.11,0
Rio Linda,38.69,-121.44,0
Rio Oso,38.95,-121.53,0
Rio Vista,38.18,-121.7,0
Ripley,33.52,-114.65,0
Ripon,37.74,-121.13,0
River Pines,38.55,-120.75,0
Riverbank,37.73,-120.94,0
Riverdale,36.43,-119.87,0
Riverdale Park,37.6,-121.04,0
Riverside,33.94,-117.39,0
Robbins,38.87,-121.71,0
Robinson Mill,39.49,-121.32,0
Rocklin,38.81,-121.25,0
Rodeo,38.04,-122.25,0
Rodriguez Camp,35.81,-119.14,0
Rohnert Park,38.35,-122.7,0
Rolling Hills,36.9,-119.8,0
Rolling Hills,33.76,-118.35,0
Rolling Hills Estates,33.78,-118.35,0
Rollingwood,37.97,-122.33,0
Romoland,33.76,-117.16,0
Rosamond,34.87,-118.22,0
Rose Hills,34.01,-118.04,0
Rosedale,35.39,-119.2,0
Roseland,38.42,-122.73,0
Rosemead,34.07,-118.08,0
Rosemont,38.55,-121.36,0
Roseville,38.77,-121.3,0
Ross town,37.96,-122.56,0
Rossmoor,33.79,-118.08,0
Rough and Ready,39.23,-121.14,0
Round Mountain,40.8,-121.94,0
Round Valley,37.41,-118.58,0
Rouse,37.62,-121.01,0
Rowland Heights,33.97,-117.89,0
Rubidoux,33.99,-117.42,0
Running Springs,34.21,-117.11,0
Ruth,40.29,-123.35,0
Rutherford,38.46,-122.42,0
Sacramento,38.57,-121.47,0
Salida,37.72,-121.09,0
Salinas,36.69,-121.63,0
Salmon Creek,38.35,-123.06,0
Salton City,33.3,-115.96,0
Salton Sea Beach,33.38,-116.01,0
Samoa,40.81,-124.19,0
San Andreas,38.19,-120.68,0
San Anselmo town,37.98,-122.57,0
San Antonio Heights,34.16,-117.66,0
San Ardo,36.02,-120.91,0
San Bernardino,34.14,-117.3,0
San Bruno,37.63,-122.43,3
San Buenaventura (Ventura),34.27,-119.25,0
San Carlos,37.5,-122.27,0
San Clemente,33.45,-117.61,0
San Diego,32.82,-117.13,0
San Diego Country Estates,33.01,-116.79,0
San Dimas,34.11,-117.81,0
San Fernando,34.29,-118.44,0
San Francisco,37.7749,-122.4194,1
San Gabriel,34.09,-118.1,0
San Geronimo,38.01,-122.66,0
San Jacinto,33.8,-116.99,0
San Joaquin,36.61,-120.19,0
San Jose,37.3,-121.85,1
San Juan Bautista,36.85,-121.54,0
San Juan Capistrano,33.5,-117.65,0
San Leandro,37.7,-122.16,3
San Lorenzo,37.67,-122.13,0
San Lucas,36.13,-121.02,0
San Luis Obispo,35.27,-120.67,0
San Marcos,33.13,-117.17,0
San Marino,34.12,-118.11,0
San Martin,37.08,-121.6,0
San Mateo,37.56,-122.31,2
San Miguel,37.89,-122.04,0
San Miguel,35.75,-120.69,0
San Pablo,37.96,-122.34,3
San Pasqual,34.14,-118.1,0
San Rafael,37.98,-122.51,2
San Ramon,37.76,-121.94,0
San Simeon,35.62,-121.14,0
Sand City,36.63,-121.86,0
Sanger,36.7,-119.56,0
Santa Ana,33.74,-117.88,0
Santa Barbara,34.4,-119.71,0
Santa Clara,37.36,-121.97,2
Santa Clarita,34.41,-118.5,0
Santa Cruz,36.97,-122.04,3
Santa Fe Springs,33.93,-118.06,0
Santa Margarita,35.39,-120.61,0
Santa Maria,34.93,-120.44,0
Santa Monica,34.02,-118.48,0
Santa Nella,37.1,-121.02,0
Santa Paula,34.35,-119.07,0
Santa Rosa,38.45,-122.71,0
Santa Rosa Valley,34.25,-118.9,0
Santa Susana,34.26,-118.67,0
Santa Venetia,38.01,-122.5,0
Santa Ynez,34.62,-120.09,0
Santee,32.86,-116.98,0
Saranap,37.89,-122.08,0
Saratoga,37.27,-122.03,3
Saticoy,34.28,-119.15,0
Sattley,39.63,-120.44,0
Sausalito,37.86,-122.49,0
Scotia,40.48,-124.1,0
Scotts Valley,37.06,-122.01,0
Sea Ranch,38.72,-123.45,0
Seacliff,36.98,-121.92,0
Seal Beach,33.75,-118.07,0
Searles Valley,35.77,-117.4,0
Seaside,36.62,-121.82,0
Sebastopol,38.4,-122.83,0
Seeley,32.79,-115.68,0
Selma,36.57,-119.62,0
Sequoia Crest,36.19,-118.63,0
Sereno del Mar,38.38,-123.07,0
Seville,36.49,-119.22,0
Shackelford,37.61,-120.99,0
Shafter,35.48,-119.2,0
Shandon,35.65,-120.38,0
Shasta,40.59,-122.48,0
Shasta Lake,40.68,-122.38,0
Shaver Lake,37.1,-119.32,0
Shell Ridge,37.91,-122.03,0
Shelter Cove,40.04,-124.06,0
Sheridan,38.97,-121.36,0
Shingle Springs,38.67,-120.94,0
Shingletown,40.5,-121.86,0
Shoshone,35.95,-116.31,0
Sierra Brooks,39.64,-120.22,0
Sierra City,39.57,-120.63,0
Sierra Madre,34.17,-118.05,0
Sierra Village,38.08,-120.16,0
Sierraville,39.58,-120.36,0
Signal Hill,33.8,-118.17,0
Silver City,36.46,-118.65,0
Silver Lakes,34.75,-117.34,0
Silverado Resort,38.35,-122.26,0
Simi Valley,34.27,-118.75,0
Sisquoc,34.86,-120.29,0
Sky Valley,33.89,-116.35,0
Sleepy Hollow,38.01,-122.59,0
Smartsville,39.21,-121.29,0
Smith Corner,35.48,-119.28,0
Smith River,41.92,-124.15,0
Snelling,37.52,-120.44,0
Soda Bay,39,-122.78,0
Soda Springs,39.32,-120.38,0
Solana Beach,32.99,-117.26,0
Soledad,36.44,-121.34,0
Solvang,34.59,-120.14,0
Sonoma,38.29,-122.46,0
Sonora,37.98,-120.38,0
Soquel,37,-121.95,0
Soulsbyville,37.99,-120.26,0
South Dos Palos,36.97,-120.65,0
South El Monte,34.05,-118.05,0
South Gate,33.94,-118.19,0
South Lake Tahoe,38.94,-119.98,0
South Monrovia Island,34.12,-118,0
South Oroville,39.48,-121.54,0
South Pasadena,34.11,-118.16,0
South San Francisco,37.6547,-122.4077,2
South San Gabriel,34.05,-118.1,0
South San Jose Hills,34.01,-117.9,0
South Taft,35.13,-119.46,0
South Whittier,33.93,-118.03,0
Spaulding,40.66,-120.79,0
Spreckels,36.62,-121.65,0
Spring Garden,39.9,-120.79,0
Spring Valley,32.73,-116.98,0
Spring Valley,39.08,-122.6,0
Spring Valley Lake,34.5,-117.27,0
Springville,36.12,-118.83,0
Squaw Valley,36.69,-119.2,0
Squirrel Mountain Valley,35.62,-118.41,0
St. Helena,38.5,-122.47,0
Stallion Springs,35.09,-118.65,0
Stanford,37.43,-122.17,0
Stanton,33.8,-117.99,0
Stevenson Ranch,34.39,-118.59,0
Stevinson,37.32,-120.85,0
Stinson Beach,37.91,-122.65,3
Stirling City,39.91,-121.54,0
Stockton,37.98,-121.31,0
Stonyford,39.37,-122.54,0
Storrie,39.92,-121.32,0
Stratford,36.19,-119.82,0
Strathmore,36.14,-119.06,0
Strawberry,37.89,-122.51,0
Strawberry,38.2,-120.01,0
Sugarloaf Mountain Park,35.84,-118.6,0
Sugarloaf Saw Mill,35.83,-118.62,0
Sugarloaf Village,35.83,-118.64,0
Suisun City,38.25,-122.01,0
Sultana,36.55,-119.34,0
Summerland,34.43,-119.59,0
Sun Village,34.56,-117.96,0
Sunny Slopes,37.57,-118.68,0
Sunnyside,36.73,-119.69,0
Sunnyside-Tahoe City,39.15,-120.16,0
Sunnyslope,34.02,-117.43,0
Sunnyvale,37.39,-122.03,0
Sunol,37.59,-121.89,0
Sunset Beach,33.72,-118.07,0
Susanville,40.42,-120.61,0
Sutter,39.16,-121.75,0
Sutter Creek,38.38,-120.81,0
Swall Meadows,37.51,-118.64,0
Taft,35.13,-119.42,0
Taft Heights,35.13,-119.47,0
Taft Mosswood,37.91,-121.28,0
Tahoe Vista,39.25,-120.05,0
Tahoma,39.06,-120.14,0
Talmage,39.13,-123.16,0
Tamalpais-Homestead Valley,37.88,-122.54,0
Tara Hills,37.99,-122.32,0
Tarpey Village,36.79,-119.7,0
Taylorsville,40.06,-120.84,0
Tecopa,35.84,-116.21,0
Tehachapi,35.13,-118.48,0
Tehama,40.02,-122.13,0
Temecula,33.5,-117.12,0
Temelec,38.26,-122.5,0
Temescal Valley,33.76,-117.47,0
Temple City,34.1,-118.06,0
Templeton,35.56,-120.72,0
Tennant,41.58,-121.91,0
Terminous,38.12,-121.49,0
Terra Bella,35.96,-119.03,0
Teviston,35.93,-119.28,0
Thermal,33.63,-116.13,0
Thermalito,39.49,-121.62,0
Thornton,38.23,-121.43,0
Thousand Oaks,34.19,-118.87,0
Thousand Palms,33.81,-116.35,0
Three Rivers,36.43,-118.88,0
Three Rocks,36.51,-120.39,0
Tiburon town,37.89,-122.45,0
Timber Cove,38.54,-123.26,0
Tipton,36.06,-119.31,0
Tobin,39.94,-121.3,0
Tomales,38.25,-122.91,0
Tonyville,36.25,-119.09,0
Tooleville,36.29,-119.12,0
Topanga,34.1,-118.61,0
Topaz,38.66,-119.53,0
Toro Canyon,34.42,-119.56,0
Torrance,33.83,-118.34,0
Tracy,37.72,-121.44,0
Tranquillity,36.65,-120.25,0
Traver,36.45,-119.48,0
Tres Pinos,36.79,-121.31,0
Trinidad,41.06,-124.14,0
Trinity Center,40.98,-122.71,0
Trinity Village,40.88,-123.51,0
Trona,35.81,-117.34,0
Trowbridge,38.93,-121.51,0
Truckee town,39.35,-120.18,0
Tulare,36.2,-119.34,0
Tulelake,41.95,-121.48,0
Tuolumne City,37.96,-120.24,0
Tupman,35.3,-119.36,0
Turlock,37.51,-120.86,0
Tustin,33.73,-117.81,0
Tuttle,37.3,-120.38,0
Tuttletown,38,-120.45,0
Twain,40.04,-121.04,0
Twain Harte,38.04,-120.23,0
Twentynine Palms,34.15,-116.07,0
Twin Lakes,36.96,-121.99,0
Ukiah,39.15,-123.21,0
Union City,37.6,-122.02,3
University of California Davis,38.54,-121.76,0
University of California Merced,37.37,-120.42,0
Upland,34.12,-117.66,0
Upper Lake,39.17,-122.91,0
Vacaville,38.36,-121.97,0
Val Verde,34.45,-118.67,0
Valinda,34.04,-117.93,0
Valle Vista,33.74,-116.89,0
Vallecito,38.07,-120.46,0
Vallejo,38.11,-122.26,0
Valley Acres,35.21,-119.41,0
Valley Center,33.23,-117.02,0
Valley Ford,38.32,-122.91,0
Valley Home,37.83,-120.92,0
Valley Ranch,39.74,-120.56,0
Valley Springs,38.18,-120.82,0
Valley Wells,35.88,-117.34,0
Vandenberg AFB,34.75,-120.52,0
Vandenberg Village,34.71,-120.46,0
Verdi,39.52,-120.02,0
Vernon,34,-118.21,0
Victor,38.14,-121.2,0
Victorville,34.53,-117.35,0
View Park-Windsor Hills,34,-118.35,0
Villa Park,33.82,-117.81,0
Vina,39.93,-122.05,0
Vincent,34.1,-117.92,0
Vine Hill,38.01,-122.09,0
Vineyard,38.47,-121.32,0
Visalia,36.33,-119.33,0
Vista,33.19,-117.24,0
Vista Santa Rosa,33.62,-116.21,0
Volcano,38.45,-120.63,0
Volta,37.09,-120.92,0
Walker,38.53,-119.46,0
Wallace,38.2,-120.96,0
Walnut,34.03,-117.86,0
Walnut Creek,37.9,-122.04,0
Walnut Grove,38.25,-121.53,0
Walnut Park,33.97,-118.22,0
Warm Springs,33.7,-117.33,0
Warner Valley,40.4,-121.32,0
Wasco,35.59,-119.37,0
Washington,39.36,-120.79,0
Waterford,37.64,-120.76,0
Waterloo,38.04,-121.18,0
Watsonville,36.92,-121.77,0
Waukena,36.14,-119.51,0
Wawona,37.55,-119.64,0
Weaverville,40.75,-122.93,0
Weed,41.41,-122.38,0
Weedpatch,35.24,-118.91,0
Weldon,35.64,-118.31,0
Weott,40.32,-123.92,0
West Athens,33.92,-118.3,0
West Bishop,37.36,-118.45,0
West Carson,33.82,-118.29,0
West Covina,34.06,-117.91,0
West Goshen,36.35,-119.45,0
West Hollywood,34.09,-118.37,0
West Menlo Park,37.43,-122.2,0
West Modesto,37.62,-121.04,0
West Park,36.71,-119.85,0
West Point,38.4,-120.54,0
West Puente Valley,34.05,-117.97,0
West Rancho Dominguez,33.89,-118.27,0
West Sacramento,38.56,-121.55,0
West Whittier-Los Nietos,33.98,-118.07,0
Westhaven-Moonstone,41.04,-124.1,0
Westlake Village,34.14,-118.82,0
Westley,37.55,-121.21,0
Westminster,33.75,-117.99,0
Westmont,33.94,-118.3,0
Westmorland,33.04,-115.62,0
Westwood,40.3,-121,0
Wheatland,39.01,-121.43,0
Whitehawk,39.72,-120.55,0
Whitewater,33.94,-116.69,0
Whitley Gardens,35.66,-120.51,0
Whittier,33.97,-118.02,0
Wildomar,33.62,-117.26,0
Wilkerson,37.28,-118.39,0
Williams,39.15,-122.14,0
Willits,39.4,-123.35,0
Willow Creek,40.94,-123.64,0
Willowbrook,33.92,-118.25,0
Willows,39.51,-122.2,0
Wilsonia,36.73,-118.96,0
Wilton,38.41,-121.21,0
Winchester,33.71,-117.08,0
Windsor town,38.54,-122.81,0
Winter Gardens,32.84,-116.93,0
Winterhaven,32.74,-114.64,0
Winters,38.53,-121.98,0
Winton,37.39,-120.62,0
Wofford Heights,35.71,-118.47,0
Woodacre,38.01,-122.64,0
Woodbridge,38.17,-121.31,0
Woodcrest,33.88,-117.37,0
Woodlake,36.41,-119.1,0
Woodland,38.67,-121.75,0
Woodlands,35.03,-120.55,0
Woodside town,37.42,-122.26,0
Woodville,36.09,-119.2,0
Wrightwood,34.35,-117.63,0
Yankee Hill,39.7,-121.51,0
Yettem,36.49,-119.25,0
Yolo,38.74,-121.81,0
Yorba Linda,33.89,-117.77,0
Yosemite Lakes,37.19,-119.77,0
Yosemite Valley,37.74,-119.58,0
Yountville,38.4,-122.37,0
Yreka,41.73,-122.63,0
Yuba City,39.14,-121.64,0
Yucaipa,34.03,-117.04,0
Yucca Valley town,34.12,-116.42,0
Zayante,37.09,-122.04,0